[{"_id":{"$oid":"6798801b2a088a8f685d1817"},"trail_name":"Ainsworth Loop Hike","trail_type":"loop","distance(miles)":0.5,"high_point(feet)":150,"elevation_gain(feet)":85,"difficulty":"Easy","seasons":"All year","family_friendly":"Yes","backpackable":"No","crowded":"No","rattlesnakes":0,"ticks":0,"posionivy":0,"falling":0,"latitude":45.56058,"longitude":-122.17239},{"_id":{"$oid":"6798801b2a088a8f685d1818"},"trail_name":"Angels Rest Hike","trail_type":"out-and-back","distance(miles)":4.8,"high_point(feet)":1640,"elevation_gain(feet)":1475,"difficulty":"Moderate","seasons":"All Season","family_friendly":"Yes","backpackable":"No","crowded":"Yes","rattlesnakes":0,"ticks":0,"posionivy":1,"falling":0,"latitude":45.56065,"longitude":-122.17241},{"_id":{"$oid":"6798801b2a088a8f685d1819"},"trail_name":"Angels Rest-Devils Rest Loop Hike","trail_type":"loop","distance(miles)":10.8,"high_point(feet)":2435,"elevation_gain(feet)":3040,"difficulty":"Moderate","seasons":"All Season","family_friendly":"Yes","backpackable":"No","crowded":"Yes","rattlesnakes":0,"ticks":0,"posionivy":1,"falling":0,"latitude":45.56065,"longitude":-122.17241},{"_id":{"$oid":"6798801b2a088a8f685d181a"},"trail_name":"Balfour-Klickitat Loop Hike","trail_type":"loop","distance(miles)":0.7,"high_point(feet)":220,"elevation_gain(feet)":115,"difficulty":"Easy","seasons":"All year","family_friendly":"Yes","backpackable":"No","crowded":"No","rattlesnakes":0,"ticks":1,"posionivy":0,"falling":0,"latitude":45.69931,"longitude":-121.29345},{"_id":{"$oid":"6798801b2a088a8f685d181b"},"trail_name":"Beacon Rock Hike","trail_type":"out-and-back","distance(miles)":1.8,"high_point(feet)":848,"elevation_gain(feet)":680,"difficulty":"Moderate","seasons":"Year round, except during ice storms","family_friendly":"Yes","backpackable":"No","crowded":"Yes","rattlesnakes":0,"ticks":0,"posionivy":1,"falling":0,"latitude":45.62909,"longitude":-122.02103},{"_id":{"$oid":"6798801b2a088a8f685d181c"},"trail_name":"Bear Lake Hike","trail_type":"out-and-back","distance(miles)":2.6,"high_point(feet)":4100,"elevation_gain(feet)":480,"difficulty":"Easy","seasons":"Summer/Fall","family_friendly":"Yes","backpackable":"Yes","crowded":"No","rattlesnakes":0,"ticks":0,"posionivy":0,"falling":0,"latitude":45.63621,"longitude":-121.74248},{"_id":{"$oid":"6798801b2a088a8f685d181d"},"trail_name":"Bridal Veil Falls Hike","trail_type":"out-and-back","distance(miles)":1.4,"high_point(feet)":230,"elevation_gain(feet)":205,"difficulty":"Easy","seasons":"All year","family_friendly":"Yes","backpackable":"No","crowded":"Yes","rattlesnakes":0,"ticks":0,"posionivy":0,"falling":0,"latitude":45.55346,"longitude":-122.18291},{"_id":{"$oid":"6798801b2a088a8f685d181e"},"trail_name":"Buck Creek on Larch Mountain Hike","trail_type":"out-and-back","distance(miles)":1.8,"high_point(feet)":1680,"elevation_gain(feet)":310,"difficulty":"Easy","seasons":"All year, except during winter snows","family_friendly":"Yes","backpackable":"No","crowded":"No","rattlesnakes":0,"ticks":0,"posionivy":0,"falling":0,"latitude":45.51778,"longitude":-122.17206},{"_id":{"$oid":"6798801b2a088a8f685d181f"},"trail_name":"Buck Point Hike","trail_type":"out-and-back","distance(miles)":1.8,"high_point(feet)":710,"elevation_gain(feet)":600,"difficulty":"Easy","seasons":"Year-round","family_friendly":"Yes","backpackable":"No","crowded":"No","rattlesnakes":0,"ticks":0,"posionivy":0,"falling":0,"latitude":45.641,"longitude":-121.9266},{"_id":{"$oid":"6798801b2a088a8f685d1820"},"trail_name":"Camp Benson Falls Hike","trail_type":"out-and-back","distance(miles)":4.9,"high_point(feet)":460,"elevation_gain(feet)":430,"difficulty":"Easy","seasons":"All year","family_friendly":"Yes","backpackable":"No","crowded":"No","rattlesnakes":0,"ticks":0,"posionivy":0,"falling":0,"latitude":45.42771,"longitude":-122.81956},{"_id":{"$oid":"6798801b2a088a8f685d1821"},"trail_name":"Cape Horn Overlooks Hike","trail_type":"out-and-back","distance(miles)":8.6,"high_point(feet)":1300,"elevation_gain(feet)":1795,"difficulty":"Moderate","seasons":"All year","family_friendly":"Yes","backpackable":"No","crowded":"Yes","rattlesnakes":0,"ticks":0,"posionivy":1,"falling":0,"latitude":45.58852,"longitude":-122.17874},{"_id":{"$oid":"6798801b2a088a8f685d1822"},"trail_name":"Cascade Locks West Loop Hike","trail_type":"loop","distance(miles)":3,"high_point(feet)":280,"elevation_gain(feet)":100,"difficulty":"Easy","seasons":"Year round","family_friendly":"Yes","backpackable":"No","crowded":"No","rattlesnakes":0,"ticks":0,"posionivy":0,"falling":0,"latitude":45.66177,"longitude":-121.89848},{"_id":{"$oid":"6798801b2a088a8f685d1823"},"trail_name":"Catherine Creek Arch Loop Hike","trail_type":"loop","distance(miles)":3.4,"high_point(feet)":615,"elevation_gain(feet)":500,"difficulty":"Easy","seasons":"Year round, best Mar-May","family_friendly":"Yes","backpackable":"No","crowded":"Yes","rattlesnakes":1,"ticks":1,"posionivy":0,"falling":0,"latitude":45.71047,"longitude":-121.36214},{"_id":{"$oid":"6798801b2a088a8f685d1824"},"trail_name":"Catherine Creek Universal Access Hike","trail_type":"loop","distance(miles)":1.2,"high_point(feet)":265,"elevation_gain(feet)":90,"difficulty":"Easy","seasons":"All year","family_friendly":"Yes","backpackable":"No","crowded":"Yes","rattlesnakes":1,"ticks":1,"posionivy":0,"falling":0,"latitude":45.71047,"longitude":-121.36214},{"_id":{"$oid":"6798801b2a088a8f685d1825"},"trail_name":"Catherine Creek West Loop Hike","trail_type":"loop","distance(miles)":3.4,"high_point(feet)":1310,"elevation_gain(feet)":1040,"difficulty":"Easy","seasons":"Year round","family_friendly":"Yes","backpackable":"No","crowded":"Yes","rattlesnakes":1,"ticks":1,"posionivy":0,"falling":0,"latitude":45.71047,"longitude":-121.36214},{"_id":{"$oid":"6798801b2a088a8f685d1826"},"trail_name":"Catherine Creek-Rowland Basin Loop Hike","trail_type":"loop","distance(miles)":4.9,"high_point(feet)":1300,"elevation_gain(feet)":1320,"difficulty":"Moderate","seasons":"All year: best time is spring","family_friendly":"Yes, for older children","backpackable":"No","crowded":"On Sunflower Hill","rattlesnakes":1,"ticks":1,"posionivy":0,"falling":0,"latitude":45.71047,"longitude":-121.36214},{"_id":{"$oid":"6798801b2a088a8f685d1827"},"trail_name":"Chenoweth Tableland Loop Hike","trail_type":"loop","distance(miles)":3.5,"high_point(feet)":775,"elevation_gain(feet)":620,"difficulty":"Easy","seasons":"All year","family_friendly":"Yes","backpackable":"No","crowded":"No","rattlesnakes":0,"ticks":1,"posionivy":1,"falling":0,"latitude":45.62715,"longitude":-121.22913},{"_id":{"$oid":"6798801b2a088a8f685d1828"},"trail_name":"Chinidere Mountain Loop Hike","trail_type":"loop","distance(miles)":4.4,"high_point(feet)":4673,"elevation_gain(feet)":1140,"difficulty":"Moderate","seasons":"Early Summer through Fall","family_friendly":"Yes","backpackable":"Yes - connects to Gorge trail network, camping at ","crowded":"Peak summer weekends","rattlesnakes":0,"ticks":0,"posionivy":0,"falling":0,"latitude":45.57737,"longitude":-121.79263},{"_id":{"$oid":"6798801b2a088a8f685d1829"},"trail_name":"Columbia Gorge Traverse Hike","trail_type":"point-to-point","distance(miles)":34.7,"high_point(feet)":1855,"elevation_gain(feet)":4725,"difficulty":"Moderate (in sections)","seasons":"All year","family_friendly":"Yes, in short sections","backpackable":"Yes","crowded":"No","rattlesnakes":0,"ticks":0,"posionivy":1,"falling":0,"latitude":45.7253,"longitude":-121.73},{"_id":{"$oid":"6798801b2a088a8f685d182a"},"trail_name":"Coyote Wall Hike","trail_type":"loop","distance(miles)":7.8,"high_point(feet)":1895,"elevation_gain(feet)":1775,"difficulty":"Moderate","seasons":"Year round","family_friendly":"Yes, but take care at the cliffs","backpackable":"No","crowded":"Yes","rattlesnakes":1,"ticks":1,"posionivy":1,"falling":0,"latitude":45.2974,"longitude":-122.79827},{"_id":{"$oid":"6798801b2a088a8f685d182b"},"trail_name":"Dalles Mountain Ranch Loop Hike","trail_type":"loop","distance(miles)":6.9,"high_point(feet)":1310,"elevation_gain(feet)":1060,"difficulty":"Moderate","seasons":"Year-round","family_friendly":"Yes","backpackable":"No","crowded":"Yes","rattlesnakes":1,"ticks":1,"posionivy":0,"falling":0,"latitude":45.657,"longitude":-121.0872},{"_id":{"$oid":"6798801b2a088a8f685d182c"},"trail_name":"Duncan Creek Hike","trail_type":"out-and-back","distance(miles)":4.3,"high_point(feet)":2050,"elevation_gain(feet)":1100,"difficulty":"Moderate","seasons":"Spring through fall","family_friendly":"Yes, for older kids","backpackable":"No","crowded":"No","rattlesnakes":0,"ticks":0,"posionivy":0,"falling":0,"latitude":45.63603,"longitude":-122.08526},{"_id":{"$oid":"6798801b2a088a8f685d182d"},"trail_name":"Eagle Creek Overlook Hike","trail_type":"out-and-back","distance(miles)":0.6,"high_point(feet)":170,"elevation_gain(feet)":175,"difficulty":"Easy","seasons":"October 1st to May 30th","family_friendly":"Yes","backpackable":"No","crowded":"No","rattlesnakes":0,"ticks":0,"posionivy":0,"falling":0,"latitude":45.63674,"longitude":-121.91974},{"_id":{"$oid":"6798801b2a088a8f685d182e"},"trail_name":"Eagle Creek to Punch Bowl Falls Hike","trail_type":"out-and-back","distance(miles)":4.2,"high_point(feet)":505,"elevation_gain(feet)":525,"difficulty":"Easy","seasons":"Year round","family_friendly":"Yes, for older kids","backpackable":"No","crowded":"Yes","rattlesnakes":0,"ticks":0,"posionivy":1,"falling":0,"latitude":45.64045,"longitude":-121.9264},{"_id":{"$oid":"6798801b2a088a8f685d182f"},"trail_name":"EasyCLIMB Loop Hike","trail_type":"loop","distance(miles)":2.8,"high_point(feet)":180,"elevation_gain(feet)":170,"difficulty":"Easy","seasons":"All year","family_friendly":"Yes","backpackable":"No","crowded":"No","rattlesnakes":0,"ticks":0,"posionivy":0,"falling":0,"latitude":45.7253,"longitude":-121.73},{"_id":{"$oid":"6798801b2a088a8f685d1830"},"trail_name":"Elowah Falls Loop Hike","trail_type":"loop","distance(miles)":2.1,"high_point(feet)":255,"elevation_gain(feet)":340,"difficulty":"Easy","seasons":"Year-round except during winter storms","family_friendly":"Yes","backpackable":"No","crowded":"Yes, as far as the falls","rattlesnakes":0,"ticks":0,"posionivy":0,"falling":0,"latitude":45.61248,"longitude":-122.00461},{"_id":{"$oid":"6798801b2a088a8f685d1831"},"trail_name":"Fairy Falls Loop Hike","trail_type":"loop","distance(miles)":3.4,"high_point(feet)":1575,"elevation_gain(feet)":1495,"difficulty":"Moderate","seasons":"All year","family_friendly":"Yes","backpackable":"No","crowded":"Yes","rattlesnakes":0,"ticks":0,"posionivy":0,"falling":0,"latitude":45.7253,"longitude":-121.73},{"_id":{"$oid":"6798801b2a088a8f685d1832"},"trail_name":"Fort Cascades Loop Hike","trail_type":"loop","distance(miles)":1.3,"high_point(feet)":60,"elevation_gain(feet)":15,"difficulty":"Easy","seasons":"year-round","family_friendly":"Yes","backpackable":"No","crowded":"No","rattlesnakes":0,"ticks":0,"posionivy":0,"falling":0,"latitude":46.22677,"longitude":-124.01276},{"_id":{"$oid":"6798801b2a088a8f685d1833"},"trail_name":"Fort Rains Hike","trail_type":"out-and-back","distance(miles)":1.8,"high_point(feet)":175,"elevation_gain(feet)":80,"difficulty":"Easy","seasons":"Year round","family_friendly":"Yes","backpackable":"No","crowded":"No","rattlesnakes":0,"ticks":0,"posionivy":0,"falling":0,"latitude":45.661,"longitude":-121.90642},{"_id":{"$oid":"6798801b2a088a8f685d1834"},"trail_name":"Gillette Lake Hike","trail_type":"out-and-back","distance(miles)":5.6,"high_point(feet)":435,"elevation_gain(feet)":650,"difficulty":"Easy","seasons":"Year round","family_friendly":"Yes","backpackable":"No","crowded":"Yes","rattlesnakes":0,"ticks":0,"posionivy":0,"falling":0,"latitude":45.65032,"longitude":-121.93389},{"_id":{"$oid":"6798801b2a088a8f685d1835"},"trail_name":"Hamilton Creek Loop Hike","trail_type":"loop","distance(miles)":2.3,"high_point(feet)":75,"elevation_gain(feet)":20,"difficulty":"Easy","seasons":"All year","family_friendly":"Yes","backpackable":"No","crowded":"No","rattlesnakes":0,"ticks":0,"posionivy":0,"falling":0,"latitude":45.6385,"longitude":-121.9742},{"_id":{"$oid":"6798801b2a088a8f685d1836"},"trail_name":"Herman Creek Hike","trail_type":"out-and-back","distance(miles)":15.4,"high_point(feet)":2925,"elevation_gain(feet)":2970,"difficulty":"Difficult","seasons":"All year","family_friendly":"Yes, for a shorter distance","backpackable":"Yes","crowded":"On summer weekends","rattlesnakes":0,"ticks":0,"posionivy":0,"falling":0,"latitude":45.68295,"longitude":-121.84194},{"_id":{"$oid":"6798801b2a088a8f685d1837"},"trail_name":"Herman Creek Pinnacles Hike","trail_type":"out-and-back","distance(miles)":4.6,"high_point(feet)":970,"elevation_gain(feet)":1305,"difficulty":"Easy","seasons":"All year","family_friendly":"Yes","backpackable":"No","crowded":"Yes, on weekends","rattlesnakes":0,"ticks":0,"posionivy":0,"falling":0,"latitude":45.68295,"longitude":-121.84194},{"_id":{"$oid":"6798801b2a088a8f685d1838"},"trail_name":"Herman Creek-Wyeth Hike","trail_type":"out-and-back","distance(miles)":10.8,"high_point(feet)":960,"elevation_gain(feet)":2175,"difficulty":"Moderate","seasons":"Year-Round","family_friendly":"Yes (as a car shuttle)","backpackable":"No","crowded":"No","rattlesnakes":0,"ticks":0,"posionivy":0,"falling":0,"latitude":45.68295,"longitude":-121.84194},{"_id":{"$oid":"6798801b2a088a8f685d1839"},"trail_name":"Hood River Pipeline Hike","trail_type":"out-and-back","distance(miles)":3.3,"high_point(feet)":200,"elevation_gain(feet)":110,"difficulty":"Easy","seasons":"All year","family_friendly":"Yes","backpackable":"No","crowded":"On summer weekends","rattlesnakes":0,"ticks":0,"posionivy":0,"falling":0,"latitude":45.38337,"longitude":-122.7408},{"_id":{"$oid":"6798801b2a088a8f685d183a"},"trail_name":"Hood River Waterfront Hike","trail_type":"out-and-back","distance(miles)":6.4,"high_point(feet)":95,"elevation_gain(feet)":15,"difficulty":"Easy","seasons":"All year","family_friendly":"Yes","backpackable":"No","crowded":"Yes","rattlesnakes":0,"ticks":0,"posionivy":0,"falling":0,"latitude":45.38337,"longitude":-122.7408},{"_id":{"$oid":"6798801b2a088a8f685d183b"},"trail_name":"Horsetail Falls Loop Hike","trail_type":"loop","distance(miles)":2.6,"high_point(feet)":395,"elevation_gain(feet)":565,"difficulty":"Easy","seasons":"All year, except during winter storms","family_friendly":"Yes","backpackable":"No","crowded":"Yes","rattlesnakes":0,"ticks":0,"posionivy":1,"falling":0,"latitude":45.59038,"longitude":-122.06812},{"_id":{"$oid":"6798801b2a088a8f685d183c"},"trail_name":"Indian Creek Hike","trail_type":"out-and-back","distance(miles)":3.2,"high_point(feet)":480,"elevation_gain(feet)":250,"difficulty":"Easy","seasons":"All year","family_friendly":"Yes","backpackable":"No","crowded":"No","rattlesnakes":0,"ticks":0,"posionivy":0,"falling":0,"latitude":45.70533,"longitude":-121.50809},{"_id":{"$oid":"6798801b2a088a8f685d183d"},"trail_name":"Klickitat Canyon Hike","trail_type":"out-and-back","distance(miles)":6.8,"high_point(feet)":645,"elevation_gain(feet)":100,"difficulty":"Easy","seasons":"All year","family_friendly":"Yes","backpackable":"No","crowded":"No","rattlesnakes":1,"ticks":1,"posionivy":0,"falling":0,"latitude":45.83468,"longitude":-121.08058},{"_id":{"$oid":"6798801b2a088a8f685d183e"},"trail_name":"Klickitat Trail: Klickitat Mineral Springs Hike","trail_type":"out-and-back","distance(miles)":5.2,"high_point(feet)":545,"elevation_gain(feet)":50,"difficulty":"Easy","seasons":"All year","family_friendly":"Yes","backpackable":"No","crowded":"No","rattlesnakes":1,"ticks":1,"posionivy":0,"falling":0,"latitude":45.8233,"longitude":-121.09857},{"_id":{"$oid":"6798801b2a088a8f685d183f"},"trail_name":"Klickitat Trail: Lyle to Klickitat Hike","trail_type":"point-to-point","distance(miles)":13,"high_point(feet)":465,"elevation_gain(feet)":340,"difficulty":"Moderate","seasons":"All year","family_friendly":"Yes","backpackable":"No","crowded":"No","rattlesnakes":1,"ticks":1,"posionivy":0,"falling":0,"latitude":45.85,"longitude":-121.15},{"_id":{"$oid":"6798801b2a088a8f685d1840"},"trail_name":"Klickitat Trail: Swale Canyon Hike","trail_type":"point-to-point","distance(miles)":15,"high_point(feet)":1560,"elevation_gain(feet)":1010,"difficulty":"Moderate","seasons":"Fall through spring (closed in summer)","family_friendly":"Yes","backpackable":"No","crowded":"No","rattlesnakes":1,"ticks":1,"posionivy":0,"falling":0,"latitude":45.33765,"longitude":-121.91561},{"_id":{"$oid":"6798801b2a088a8f685d1841"},"trail_name":"Labyrinth Hike","trail_type":"out-and-back","distance(miles)":3.6,"high_point(feet)":1005,"elevation_gain(feet)":915,"difficulty":"Easy","seasons":"All year","family_friendly":"Yes","backpackable":"No","crowded":"Yes","rattlesnakes":1,"ticks":1,"posionivy":0,"falling":0,"latitude":45.7253,"longitude":-121.73},{"_id":{"$oid":"6798801b2a088a8f685d1842"},"trail_name":"Labyrinth-Coyote Wall Loop Hike","trail_type":"loop","distance(miles)":7.3,"high_point(feet)":1655,"elevation_gain(feet)":1790,"difficulty":"Moderate","seasons":"All year","family_friendly":"Yes, for older kids","backpackable":"No","crowded":"Yes","rattlesnakes":1,"ticks":1,"posionivy":1,"falling":0,"latitude":45.7253,"longitude":-121.73},{"_id":{"$oid":"6798801b2a088a8f685d1843"},"trail_name":"Larch Mountain Crater Loop Hike","trail_type":"loop","distance(miles)":6.3,"high_point(feet)":4055,"elevation_gain(feet)":1310,"difficulty":"Moderate","seasons":"May - November","family_friendly":"Yes","backpackable":"No","crowded":"No","rattlesnakes":0,"ticks":0,"posionivy":0,"falling":0,"latitude":45.52932,"longitude":-122.08834},{"_id":{"$oid":"6798801b2a088a8f685d1844"},"trail_name":"Latourell Falls Loop Hike","trail_type":"loop","distance(miles)":2.4,"high_point(feet)":620,"elevation_gain(feet)":625,"difficulty":"Easy","seasons":"Year round except during winter storms","family_friendly":"Yes","backpackable":"No","crowded":"Yes","rattlesnakes":0,"ticks":0,"posionivy":0,"falling":0,"latitude":45.53859,"longitude":-122.21808},{"_id":{"$oid":"6798801b2a088a8f685d1845"},"trail_name":"Lewis and Clark Park Hike","trail_type":"out-and-back","distance(miles)":3,"high_point(feet)":160,"elevation_gain(feet)":100,"difficulty":"Easy","seasons":"Year-Round","family_friendly":"Yes","backpackable":"No","crowded":"Sometimes","rattlesnakes":0,"ticks":0,"posionivy":0,"falling":0,"latitude":45.42056,"longitude":-122.55284},{"_id":{"$oid":"6798801b2a088a8f685d1846"},"trail_name":"Little Beacon Rock Loop Hike","trail_type":"loop","distance(miles)":1.6,"high_point(feet)":730,"elevation_gain(feet)":375,"difficulty":"Easy","seasons":"Year round","family_friendly":"Yes","backpackable":"No","crowded":"Yes","rattlesnakes":0,"ticks":0,"posionivy":0,"falling":0,"latitude":45.63279,"longitude":-122.01973},{"_id":{"$oid":"6798801b2a088a8f685d1847"},"trail_name":"Lyle Cherry Orchard Hike","trail_type":"loop","distance(miles)":6.5,"high_point(feet)":1245,"elevation_gain(feet)":1340,"difficulty":"Moderate","seasons":"All year, best in spring and fall","family_friendly":"Yes, for older kids","backpackable":"No","crowded":"On spring weekends","rattlesnakes":1,"ticks":1,"posionivy":0,"falling":0,"latitude":45.6864,"longitude":-121.26554},{"_id":{"$oid":"6798801b2a088a8f685d1848"},"trail_name":"Maryhill Loops Hike","trail_type":"loop","distance(miles)":5.9,"high_point(feet)":1560,"elevation_gain(feet)":820,"difficulty":"Moderate","seasons":"Year round","family_friendly":"Yes","backpackable":"No","crowded":"No","rattlesnakes":1,"ticks":1,"posionivy":0,"falling":0,"latitude":45.49936,"longitude":-122.69368},{"_id":{"$oid":"6798801b2a088a8f685d1849"},"trail_name":"McCall Point Hike","trail_type":"out-and-back","distance(miles)":3.4,"high_point(feet)":1722,"elevation_gain(feet)":1070,"difficulty":"Moderate","seasons":"March 1st to October 31st (closed in the wet season to prevent erosion)","family_friendly":"Yes, for older kids","backpackable":"No","crowded":"Yes","rattlesnakes":1,"ticks":1,"posionivy":1,"falling":0,"latitude":45.68272,"longitude":-121.29988},{"_id":{"$oid":"6798801b2a088a8f685d184a"},"trail_name":"Memaloose Hills Hike","trail_type":"out-and-back","distance(miles)":3.2,"high_point(feet)":957,"elevation_gain(feet)":550,"difficulty":"Easy","seasons":"All year","family_friendly":"Yes","backpackable":"No","crowded":"No","rattlesnakes":1,"ticks":1,"posionivy":0,"falling":0,"latitude":45.69458,"longitude":-121.34384},{"_id":{"$oid":"6798801b2a088a8f685d184b"},"trail_name":"Mosier Plateau Hike","trail_type":"out-and-back","distance(miles)":3.5,"high_point(feet)":620,"elevation_gain(feet)":760,"difficulty":"Easy","seasons":"All year","family_friendly":"Yes","backpackable":"No","crowded":"Yes","rattlesnakes":1,"ticks":0,"posionivy":1,"falling":0,"latitude":45.68491,"longitude":-121.39391},{"_id":{"$oid":"6798801b2a088a8f685d184c"},"trail_name":"Mosier Twin Tunnels Hike","trail_type":"point-to-point","distance(miles)":8.5,"high_point(feet)":530,"elevation_gain(feet)":1000,"difficulty":"Moderate","seasons":"Year round","family_friendly":"Yes","backpackable":"No","crowded":"Yes","rattlesnakes":1,"ticks":0,"posionivy":0,"falling":0,"latitude":45.64153,"longitude":-121.92809},{"_id":{"$oid":"6798801b2a088a8f685d184d"},"trail_name":"Mount Defiance from Wahtum Lake Road Hike","trail_type":"out-and-back","distance(miles)":3.2,"high_point(feet)":4959,"elevation_gain(feet)":1145,"difficulty":"Easy","seasons":"May-Nov","family_friendly":"Yes","backpackable":"No","crowded":"No","rattlesnakes":0,"ticks":0,"posionivy":0,"falling":0,"latitude":45.63621,"longitude":-121.74248},{"_id":{"$oid":"6798801b2a088a8f685d184e"},"trail_name":"Mud Lake Hike","trail_type":"out-and-back","distance(miles)":7.4,"high_point(feet)":4480,"elevation_gain(feet)":1400,"difficulty":"Moderate","seasons":"Summer into Fall","family_friendly":"Yes","backpackable":"es","crowded":"No","rattlesnakes":0,"ticks":0,"posionivy":0,"falling":0,"latitude":45.57737,"longitude":-121.79263},{"_id":{"$oid":"6798801b2a088a8f685d184f"},"trail_name":"Multnomah Falls Hike","trail_type":"out-and-back","distance(miles)":2.4,"high_point(feet)":895,"elevation_gain(feet)":870,"difficulty":"Moderate","seasons":"Year-round","family_friendly":"Yes","backpackable":"No","crowded":"Very","rattlesnakes":0,"ticks":0,"posionivy":0,"falling":0,"latitude":45.57787,"longitude":-122.11727},{"_id":{"$oid":"6798801b2a088a8f685d1850"},"trail_name":"Multnomah-Wahkeena Loop Hike","trail_type":"loop","distance(miles)":4.9,"high_point(feet)":1560,"elevation_gain(feet)":1600,"difficulty":"Moderate","seasons":"Year round (occasional snow/ice in winter)","family_friendly":"Yes","backpackable":"No","crowded":"Yes","rattlesnakes":0,"ticks":0,"posionivy":0,"falling":0,"latitude":45.57769,"longitude":-122.11722},{"_id":{"$oid":"6798801b2a088a8f685d1851"},"trail_name":"Nellie Corser Loop Hike","trail_type":"loop","distance(miles)":0.8,"high_point(feet)":1215,"elevation_gain(feet)":275,"difficulty":"Easy","seasons":"Spring through fall","family_friendly":"Yes","backpackable":"No","crowded":"No","rattlesnakes":0,"ticks":0,"posionivy":0,"falling":0,"latitude":45.6378,"longitude":-122.0826},{"_id":{"$oid":"6798801b2a088a8f685d1852"},"trail_name":"Nick Eaton Falls Hike","trail_type":"out-and-back","distance(miles)":4.2,"high_point(feet)":1020,"elevation_gain(feet)":970,"difficulty":"Easy","seasons":"All year","family_friendly":"Yes","backpackable":"No","crowded":"Yes","rattlesnakes":0,"ticks":0,"posionivy":0,"falling":0,"latitude":45.68283,"longitude":-121.84237},{"_id":{"$oid":"6798801b2a088a8f685d1853"},"trail_name":"Pepper Mountain Hike","trail_type":"out-and-back","distance(miles)":2.6,"high_point(feet)":2149,"elevation_gain(feet)":700,"difficulty":"Easy","seasons":"Spring to late fall","family_friendly":"Yes","backpackable":"No","crowded":"No","rattlesnakes":0,"ticks":0,"posionivy":0,"falling":0,"latitude":45.45202,"longitude":-122.87016},{"_id":{"$oid":"6798801b2a088a8f685d1854"},"trail_name":"Ponytail Falls Hike","trail_type":"out-and-back","distance(miles)":0.8,"high_point(feet)":350,"elevation_gain(feet)":320,"difficulty":"Easy","seasons":"Year-round except during winter storms","family_friendly":"Yes","backpackable":"No","crowded":"Yes","rattlesnakes":0,"ticks":0,"posionivy":1,"falling":0,"latitude":45.59038,"longitude":-122.06812},{"_id":{"$oid":"6798801b2a088a8f685d1855"},"trail_name":"Pool of the Winds Hike","trail_type":"out-and-back","distance(miles)":2.2,"high_point(feet)":1035,"elevation_gain(feet)":700,"difficulty":"Easy","seasons":"Year round","family_friendly":"Yes","backpackable":"No","crowded":"Yes","rattlesnakes":0,"ticks":0,"posionivy":0,"falling":0,"latitude":45.63279,"longitude":-122.01973},{"_id":{"$oid":"6798801b2a088a8f685d1856"},"trail_name":"Punchbowl Falls Park Hike","trail_type":"out-and-back","distance(miles)":2.1,"high_point(feet)":910,"elevation_gain(feet)":210,"difficulty":"Easy","seasons":"All year","family_friendly":"Yes","backpackable":"No","crowded":"On summer weekends","rattlesnakes":0,"ticks":0,"posionivy":1,"falling":0,"latitude":45.42056,"longitude":-122.55284},{"_id":{"$oid":"6798801b2a088a8f685d1857"},"trail_name":"Rainy Lake Loop Hike","trail_type":"loop","distance(miles)":3.2,"high_point(feet)":4736,"elevation_gain(feet)":755,"difficulty":"Easy","seasons":"Summer through fall","family_friendly":"Yes","backpackable":"No","crowded":"No","rattlesnakes":0,"ticks":0,"posionivy":0,"falling":0,"latitude":45.57736,"longitude":-121.79282},{"_id":{"$oid":"6798801b2a088a8f685d1858"},"trail_name":"River to Rock Loop Hike","trail_type":"loop","distance(miles)":3.1,"high_point(feet)":285,"elevation_gain(feet)":270,"difficulty":"Easy","seasons":"All year","family_friendly":"Yes","backpackable":"No","crowded":"No","rattlesnakes":0,"ticks":0,"posionivy":0,"falling":0,"latitude":45.38337,"longitude":-122.7408},{"_id":{"$oid":"6798801b2a088a8f685d1859"},"trail_name":"Rooster Rock Loop Hike","trail_type":"loop","distance(miles)":2.7,"high_point(feet)":210,"elevation_gain(feet)":240,"difficulty":"Easy","seasons":"Year round","family_friendly":"Yes","backpackable":"No","crowded":"No","rattlesnakes":0,"ticks":0,"posionivy":0,"falling":0,"latitude":45.54731,"longitude":-122.2341},{"_id":{"$oid":"6798801b2a088a8f685d185a"},"trail_name":"Rooster Rock Wagon Road Hike","trail_type":"out-and-back","distance(miles)":4.8,"high_point(feet)":845,"elevation_gain(feet)":910,"difficulty":"Easy","seasons":"All year","family_friendly":"Yes","backpackable":"No","crowded":"No","rattlesnakes":0,"ticks":0,"posionivy":0,"falling":0,"latitude":45.5345,"longitude":-122.2607},{"_id":{"$oid":"6798801b2a088a8f685d185b"},"trail_name":"Rowena Plateau Hike","trail_type":"loop","distance(miles)":2.2,"high_point(feet)":710,"elevation_gain(feet)":240,"difficulty":"Easy","seasons":"Year round","family_friendly":"Yes","backpackable":"No","crowded":"Yes","rattlesnakes":1,"ticks":1,"posionivy":0,"falling":0,"latitude":45.68289,"longitude":-121.30207},{"_id":{"$oid":"6798801b2a088a8f685d185c"},"trail_name":"Ruckel Ridge Loop Hike","trail_type":"loop","distance(miles)":9,"high_point(feet)":3700,"elevation_gain(feet)":3700,"difficulty":"Difficult","seasons":"May-October","family_friendly":"Yes","backpackable":"No","crowded":"No","rattlesnakes":0,"ticks":0,"posionivy":1,"falling":0,"latitude":45.641,"longitude":-121.9266},{"_id":{"$oid":"6798801b2a088a8f685d185d"},"trail_name":"Sams Walker Loop Hike","trail_type":"loop","distance(miles)":1.1,"high_point(feet)":45,"elevation_gain(feet)":15,"difficulty":"Easy","seasons":"All year","family_friendly":"Yes","backpackable":"No","crowded":"No","rattlesnakes":0,"ticks":0,"posionivy":0,"falling":0,"latitude":45.6118,"longitude":-122.052},{"_id":{"$oid":"6798801b2a088a8f685d185e"},"trail_name":"Sandy River Delta Loop Hike","trail_type":"loop","distance(miles)":4.4,"high_point(feet)":35,"elevation_gain(feet)":40,"difficulty":"Easy","seasons":"Year round","family_friendly":"Yes","backpackable":"No","crowded":"Yes","rattlesnakes":0,"ticks":0,"posionivy":0,"falling":0,"latitude":45.54566,"longitude":-122.37466},{"_id":{"$oid":"6798801b2a088a8f685d185f"},"trail_name":"Shady Glen Loop Hike","trail_type":"loop","distance(miles)":0.6,"high_point(feet)":105,"elevation_gain(feet)":55,"difficulty":"Easy","seasons":"All year","family_friendly":"Yes","backpackable":"No","crowded":"No","rattlesnakes":0,"ticks":0,"posionivy":0,"falling":0,"latitude":45.641,"longitude":-121.9266},{"_id":{"$oid":"6798801b2a088a8f685d1860"},"trail_name":"She Who Watches Hike","trail_type":"out-and-back","distance(miles)":0.6,"high_point(feet)":240,"elevation_gain(feet)":45,"difficulty":"Easy","seasons":"Year round","family_friendly":"Yes","backpackable":"No","crowded":"Group tour","rattlesnakes":1,"ticks":1,"posionivy":0,"falling":0,"latitude":45.7253,"longitude":-121.73},{"_id":{"$oid":"6798801b2a088a8f685d1861"},"trail_name":"Shepperds Dell Hike","trail_type":"out-and-back","distance(miles)":0.2,"high_point(feet)":155,"elevation_gain(feet)":45,"difficulty":"Easy","seasons":"All","family_friendly":"Yes","backpackable":"No","crowded":"No","rattlesnakes":0,"ticks":0,"posionivy":0,"falling":0,"latitude":45.54687,"longitude":-122.19751},{"_id":{"$oid":"6798801b2a088a8f685d1862"},"trail_name":"Sherrard Point Hike","trail_type":"out-and-back","distance(miles)":0.6,"high_point(feet)":4055,"elevation_gain(feet)":170,"difficulty":"Easy","seasons":"Apr-Oct","family_friendly":"Yes","backpackable":"No","crowded":"Yes","rattlesnakes":0,"ticks":0,"posionivy":0,"falling":0,"latitude":45.52919,"longitude":-122.08819},{"_id":{"$oid":"6798801b2a088a8f685d1863"},"trail_name":"Skamania Lodge Loop Hike","trail_type":"loop","distance(miles)":3.3,"high_point(feet)":405,"elevation_gain(feet)":310,"difficulty":"Easy","seasons":"All year","family_friendly":"Yes","backpackable":"No","crowded":"No","rattlesnakes":0,"ticks":0,"posionivy":0,"falling":0,"latitude":45.7253,"longitude":-121.73},{"_id":{"$oid":"6798801b2a088a8f685d1864"},"trail_name":"Sorosis Park Loop Hike","trail_type":"loop","distance(miles)":1.5,"high_point(feet)":745,"elevation_gain(feet)":160,"difficulty":"Easy","seasons":"All year","family_friendly":"Yes","backpackable":"No","crowded":"No","rattlesnakes":1,"ticks":0,"posionivy":0,"falling":0,"latitude":45.42056,"longitude":-122.55284},{"_id":{"$oid":"6798801b2a088a8f685d1865"},"trail_name":"Spearfish Lake Loop Hike","trail_type":"loop","distance(miles)":2.2,"high_point(feet)":225,"elevation_gain(feet)":45,"difficulty":"Easy","seasons":"Year round","family_friendly":"Yes","backpackable":"No","crowded":"Sometimes","rattlesnakes":1,"ticks":0,"posionivy":0,"falling":0,"latitude":45.6253,"longitude":-121.1276},{"_id":{"$oid":"6798801b2a088a8f685d1866"},"trail_name":"St. Cloud Loop Hike","trail_type":"loop","distance(miles)":1,"high_point(feet)":50,"elevation_gain(feet)":25,"difficulty":"Easy","seasons":"All year","family_friendly":"Yes","backpackable":"No","crowded":"No","rattlesnakes":0,"ticks":0,"posionivy":0,"falling":0,"latitude":45.7253,"longitude":-121.73},{"_id":{"$oid":"6798801b2a088a8f685d1867"},"trail_name":"Starvation Creek Waterfalls Hike","trail_type":"out-and-back","distance(miles)":4.3,"high_point(feet)":285,"elevation_gain(feet)":145,"difficulty":"Easy","seasons":"All year","family_friendly":"Yes","backpackable":"No","crowded":"Yes","rattlesnakes":0,"ticks":0,"posionivy":0,"falling":0,"latitude":45.68839,"longitude":-121.69008},{"_id":{"$oid":"6798801b2a088a8f685d1868"},"trail_name":"Strawberry Island Loop Hike","trail_type":"loop","distance(miles)":3.2,"high_point(feet)":165,"elevation_gain(feet)":150,"difficulty":"Easy","seasons":"All year","family_friendly":"Yes","backpackable":"No","crowded":"No","rattlesnakes":0,"ticks":0,"posionivy":0,"falling":0,"latitude":45.7253,"longitude":-121.73},{"_id":{"$oid":"6798801b2a088a8f685d1869"},"trail_name":"Tanner Creek to Eagle Creek Loop Hike","trail_type":"loop","distance(miles)":5,"high_point(feet)":605,"elevation_gain(feet)":835,"difficulty":"Moderate","seasons":"Year-round except during winter storms","family_friendly":"Yes, for older kids","backpackable":"No","crowded":"No","rattlesnakes":0,"ticks":0,"posionivy":0,"falling":0,"latitude":45.63674,"longitude":-121.91974},{"_id":{"$oid":"6798801b2a088a8f685d186a"},"trail_name":"The Dalles Riverfront Hike","trail_type":"out-and-back","distance(miles)":6.6,"high_point(feet)":210,"elevation_gain(feet)":100,"difficulty":"Easy","seasons":"All year","family_friendly":"Yes","backpackable":"No","crowded":"No","rattlesnakes":1,"ticks":0,"posionivy":0,"falling":0,"latitude":45.38337,"longitude":-122.7408},{"_id":{"$oid":"6798801b2a088a8f685d186b"},"trail_name":"Tomlike Mountain Hike","trail_type":"loop","distance(miles)":6.8,"high_point(feet)":4555,"elevation_gain(feet)":1565,"difficulty":"Moderate","seasons":"Summer into Fall","family_friendly":"Yes, for older kids","backpackable":"No","crowded":"No","rattlesnakes":0,"ticks":0,"posionivy":0,"falling":0,"latitude":45.57737,"longitude":-121.79264},{"_id":{"$oid":"6798801b2a088a8f685d186c"},"trail_name":"Tracy Hill Loop Hike","trail_type":"loop","distance(miles)":6.1,"high_point(feet)":1840,"elevation_gain(feet)":1715,"difficulty":"Moderate","seasons":"Year round; spring is best","family_friendly":"Yes","backpackable":"No","crowded":"No","rattlesnakes":1,"ticks":1,"posionivy":0,"falling":0,"latitude":45.71214,"longitude":-121.3541},{"_id":{"$oid":"6798801b2a088a8f685d186d"},"trail_name":"Triple Falls Hike","trail_type":"out-and-back","distance(miles)":3.6,"high_point(feet)":650,"elevation_gain(feet)":680,"difficulty":"Moderate","seasons":"Year round except during winter storms","family_friendly":"Yes: but there are steep drop-offs","backpackable":"No","crowded":"Yes","rattlesnakes":0,"ticks":0,"posionivy":1,"falling":0,"latitude":45.58823,"longitude":-122.07987},{"_id":{"$oid":"6798801b2a088a8f685d186e"},"trail_name":"Upper McCord Creek Falls Hike","trail_type":"out-and-back","distance(miles)":1.9,"high_point(feet)":540,"elevation_gain(feet)":445,"difficulty":"Easy","seasons":"Year-round except during winter storms","family_friendly":"Yes","backpackable":"No","crowded":"Yes","rattlesnakes":0,"ticks":0,"posionivy":1,"falling":0,"latitude":45.61248,"longitude":-122.00461},{"_id":{"$oid":"6798801b2a088a8f685d186f"},"trail_name":"Viento State Park Hike","trail_type":"out-and-back","distance(miles)":5.8,"high_point(feet)":325,"elevation_gain(feet)":490,"difficulty":"Moderate","seasons":"All year","family_friendly":"Yes","backpackable":"No","crowded":"Yes","rattlesnakes":0,"ticks":0,"posionivy":0,"falling":0,"latitude":45.69617,"longitude":-121.66846},{"_id":{"$oid":"6798801b2a088a8f685d1870"},"trail_name":"Wahclella Falls Hike","trail_type":"out-and-back","distance(miles)":2.4,"high_point(feet)":335,"elevation_gain(feet)":320,"difficulty":"Easy","seasons":"Year round","family_friendly":"Yes","backpackable":"No","crowded":"Yes","rattlesnakes":0,"ticks":0,"posionivy":1,"falling":0,"latitude":45.63151,"longitude":-121.95365},{"_id":{"$oid":"6798801b2a088a8f685d1871"},"trail_name":"Wahkeena Falls Hike","trail_type":"out-and-back","distance(miles)":2.8,"high_point(feet)":645,"elevation_gain(feet)":565,"difficulty":"Moderate","seasons":"All year","family_friendly":"Yes","backpackable":"No","crowded":"Yes","rattlesnakes":0,"ticks":0,"posionivy":0,"falling":0,"latitude":45.5774,"longitude":-122.11703},{"_id":{"$oid":"6798801b2a088a8f685d1872"},"trail_name":"Warren Lake to Mount Defiance Hike","trail_type":"loop","distance(miles)":4.7,"high_point(feet)":4959,"elevation_gain(feet)":1340,"difficulty":"Moderate","seasons":"Summer into fall","family_friendly":"Yes, for older kids","backpackable":"Yes","crowded":"No","rattlesnakes":0,"ticks":0,"posionivy":0,"falling":0,"latitude":45.68838,"longitude":-121.69039},{"_id":{"$oid":"6798801b2a088a8f685d1873"},"trail_name":"Wauna Viewpoint from Eagle Creek Hike","trail_type":"out-and-back","distance(miles)":3.4,"high_point(feet)":1080,"elevation_gain(feet)":1030,"difficulty":"Moderate","seasons":"Year round","family_friendly":"Yes","backpackable":"No","crowded":"No","rattlesnakes":0,"ticks":0,"posionivy":0,"falling":0,"latitude":45.63674,"longitude":-121.91974},{"_id":{"$oid":"6798801b2a088a8f685d1874"},"trail_name":"Wind Mountain Hike","trail_type":"out-and-back","distance(miles)":2.9,"high_point(feet)":1907,"elevation_gain(feet)":1185,"difficulty":"Moderate","seasons":"Year round","family_friendly":"Yes","backpackable":"No","crowded":"No","rattlesnakes":1,"ticks":0,"posionivy":1,"falling":0,"latitude":45.71354,"longitude":-121.75213},{"_id":{"$oid":"6798801b2a088a8f685d1875"},"trail_name":"Young Creek Bottomland Hike","trail_type":"out-and-back","distance(miles)":4.3,"high_point(feet)":45,"elevation_gain(feet)":40,"difficulty":"Easy","seasons":"Summer through falll","family_friendly":"Yes","backpackable":"No","crowded":"No","rattlesnakes":0,"ticks":0,"posionivy":0,"falling":0,"latitude":45.54277,"longitude":-122.23769}]
